{
"type": "FeatureCollection",
"crs": { "type": "name", "properties": { "name": "urn:ogc:def:crs:OGC:1.3:CRS84" } },
"features": [
{ "type": "Feature", "properties": { "name": "Boston", "statefp": "25" }, "geometry": { "type": "Point", "coordinates": [ -71.059773791006052, 42.358439473004182 ] } },
{ "type": "Feature", "properties": { "name": "Chicago", "statefp": "17" }, "geometry": { "type": "Point", "coordinates": [ -87.650058053351884, 41.850040847913704 ] } },
{ "type": "Feature", "properties": { "name": "Philadelphia", "statefp": "42" }, "geometry": { "type": "Point", "coordinates": [ -75.16379077082145, 39.95234306494617 ] } },
{ "type": "Feature", "properties": { "name": "Milwaukee", "statefp": "55" }, "geometry": { "type": "Point", "coordinates": [ -87.906479552377704, 43.03891053351704 ] } },
{ "type": "Feature", "properties": { "name": "Columbus", "statefp": "39" }, "geometry": { "type": "Point", "coordinates": [ -82.998798398728255, 39.961183244167081 ] } },
{ "type": "Feature", "properties": { "name": "Detroit", "statefp": "26" }, "geometry": { "type": "Point", "coordinates": [ -83.045758212887918, 42.331435174897088 ] } },
{ "type": "Feature", "properties": { "name": "Washington", "statefp": "11" }, "geometry": { "type": "Point", "coordinates": [ -77.03636809411438, 38.895119585275339 ] } },
{ "type": "Feature", "properties": { "name": "Baltimore", "statefp": "24" }, "geometry": { "type": "Point", "coordinates": [ -76.61219148619503, 39.290392679852012 ] } },
{ "type": "Feature", "properties": { "name": "New York", "statefp": "36" }, "geometry": { "type": "Point", "coordinates": [ -73.981432561472261, 40.761501025217491 ] } },
{ "type": "Feature", "properties": { "name": "Charlotte", "statefp": "37" }, "geometry": { "type": "Point", "coordinates": [ -80.843130041911621, 35.22709378111265 ] } },
{ "type": "Feature", "properties": { "name": "Jacksonville", "statefp": "12" }, "geometry": { "type": "Point", "coordinates": [ -81.655654253578845, 30.332189560221924 ] } },
{ "type": "Feature", "properties": { "name": "Memphis", "statefp": "47" }, "geometry": { "type": "Point", "coordinates": [ -90.048985986789191, 35.149540791630578 ] } },
{ "type": "Feature", "properties": { "name": "Denver", "statefp": "08" }, "geometry": { "type": "Point", "coordinates": [ -104.984713507207061, 39.739160019341732 ] } },
{ "type": "Feature", "properties": { "name": "Albuquerque", "statefp": "35" }, "geometry": { "type": "Point", "coordinates": [ -106.651146722792774, 35.084496544569326 ] } },
{ "type": "Feature", "properties": { "name": "Dallas", "statefp": "48" }, "geometry": { "type": "Point", "coordinates": [ -96.806674226641022, 32.783061337064929 ] } },
{ "type": "Feature", "properties": { "name": "Austin", "statefp": "48" }, "geometry": { "type": "Point", "coordinates": [ -97.743068426409479, 30.267158215804052 ] } },
{ "type": "Feature", "properties": { "name": "Portland", "statefp": "41" }, "geometry": { "type": "Point", "coordinates": [ -122.676221582439865, 45.523456965434796 ] } },
{ "type": "Feature", "properties": { "name": "Las Vegas", "statefp": "32" }, "geometry": { "type": "Point", "coordinates": [ -115.137234831606548, 36.174975783774194 ] } },
{ "type": "Feature", "properties": { "name": "Oklahoma City", "statefp": "40" }, "geometry": { "type": "Point", "coordinates": [ -97.540218584579605, 35.47151379479476 ] } },
{ "type": "Feature", "properties": { "name": "Los Angeles", "statefp": "06" }, "geometry": { "type": "Point", "coordinates": [ -118.24369708754864, 34.052239056293715 ] } },
{ "type": "Feature", "properties": { "name": "Phoenix", "statefp": "04" }, "geometry": { "type": "Point", "coordinates": [ -112.07404831889383, 33.448382216978757 ] } },
{ "type": "Feature", "properties": { "name": "Fort Worth", "statefp": "48" }, "geometry": { "type": "Point", "coordinates": [ -97.320857253280053, 32.725414704168166 ] } },
{ "type": "Feature", "properties": { "name": "El Paso", "statefp": "48" }, "geometry": { "type": "Point", "coordinates": [ -106.486941150437588, 31.758724933044213 ] } },
{ "type": "Feature", "properties": { "name": "Houston", "statefp": "48" }, "geometry": { "type": "Point", "coordinates": [ -95.363278501822379, 29.76328879758783 ] } },
{ "type": "Feature", "properties": { "name": "Seattle", "statefp": "53" }, "geometry": { "type": "Point", "coordinates": [ -122.332085693683908, 47.606215116718374 ] } },
{ "type": "Feature", "properties": { "name": "San Francisco", "statefp": "06" }, "geometry": { "type": "Point", "coordinates": [ -122.419428715383987, 37.774934444203069 ] } },
{ "type": "Feature", "properties": { "name": "San Jose", "statefp": "06" }, "geometry": { "type": "Point", "coordinates": [ -121.894968586398861, 37.339390645184125 ] } },
{ "type": "Feature", "properties": { "name": "San Diego", "statefp": "06" }, "geometry": { "type": "Point", "coordinates": [ -117.157267000255175, 32.71533396129815 ] } },
{ "type": "Feature", "properties": { "name": "Tucson", "statefp": "04" }, "geometry": { "type": "Point", "coordinates": [ -110.926489706384274, 32.221747901925276 ] } },
{ "type": "Feature", "properties": { "name": "San Antonio", "statefp": "48" }, "geometry": { "type": "Point", "coordinates": [ -98.493635973068166, 29.424126923873764 ] } },
{ "type": "Feature", "properties": { "name": "Nashville", "statefp": "47" }, "geometry": { "type": "Point", "coordinates": [ -86.784448235939564, 36.165896736805486 ] } },
{ "type": "Feature", "properties": { "name": "The Bronx", "statefp": "36" }, "geometry": { "type": "Point", "coordinates": [ -73.866180831442094, 40.849936427838188 ] } },
{ "type": "Feature", "properties": { "name": "Manhattan", "statefp": "36" }, "geometry": { "type": "Point", "coordinates": [ -73.966187100970174, 40.783469925750332 ] } },
{ "type": "Feature", "properties": { "name": "Brooklyn", "statefp": "36" }, "geometry": { "type": "Point", "coordinates": [ -73.949565090872795, 40.650101110294869 ] } },
{ "type": "Feature", "properties": { "name": "Queens", "statefp": "36" }, "geometry": { "type": "Point", "coordinates": [ -73.797446732449416, 40.750170411379656 ] } },
{ "type": "Feature", "properties": { "name": "Indianapolis", "statefp": "18" }, "geometry": { "type": "Point", "coordinates": [ -86.158047424158141, 39.768384056129641 ] } },
{ "type": "Feature", "properties": { "name": "Louisville", "statefp": "21" }, "geometry": { "type": "Point", "coordinates": [ -85.759411887076794, 38.254244891482593 ] } }
]
}
